{"pageProps":{"dados":[{"speciesCode":"misthr1","comName":"Mistle Thrush","sciName":"Turdus viscivorus","locId":"L16730773","locName":"Baiterek district","obsDt":"2025-04-05 15:36","howMany":4,"lat":51.355386,"lng":51.327135,"obsValid":true,"obsReviewed":false,"locationPrivate":true,"subId":"S223055772"},{"speciesCode":"mallar3","comName":"Mallard","sciName":"Anas platyrhynchos","locId":"L16730773","locName":"Baiterek district","obsDt":"2025-04-05 15:36","howMany":10,"lat":51.355386,"lng":51.327135,"obsValid":true,"obsReviewed":false,"locationPrivate":true,"subId":"S223055772"},{"speciesCode":"eurjac","comName":"Eurasian Jackdaw","sciName":"Coloeus monedula","locId":"L16730773","locName":"Baiterek district","obsDt":"2025-04-05 15:36","howMany":6,"lat":51.355386,"lng":51.327135,"obsValid":true,"obsReviewed":false,"locationPrivate":true,"subId":"S223055772"},{"speciesCode":"euroys1","comName":"Eurasian Oystercatcher","sciName":"Haematopus ostralegus","locId":"L16730773","locName":"Baiterek district","obsDt":"2025-04-05 15:36","howMany":2,"lat":51.355386,"lng":51.327135,"obsValid":true,"obsReviewed":false,"locationPrivate":true,"subId":"S223055772"},{"speciesCode":"skylar","comName":"Eurasian Skylark","sciName":"Alauda arvensis","locId":"L16730773","locName":"Baiterek district","obsDt":"2025-04-05 15:36","lat":51.355386,"lng":51.327135,"obsValid":true,"obsReviewed":false,"locationPrivate":true,"subId":"S223055772"},{"speciesCode":"whiwag","comName":"White Wagtail","sciName":"Motacilla alba","locId":"L28430814","locName":"Kanal na Karakol","obsDt":"2025-04-05 15:18","lat":43.5939952,"lng":51.2763148,"obsValid":true,"obsReviewed":false,"locationPrivate":true,"subId":"S223062778"},{"speciesCode":"graher1","comName":"Gray Heron","sciName":"Ardea cinerea","locId":"L28430814","locName":"Kanal na Karakol","obsDt":"2025-04-05 15:18","howMany":15,"lat":43.5939952,"lng":51.2763148,"obsValid":true,"obsReviewed":false,"locationPrivate":true,"subId":"S223062778"},{"speciesCode":"wemhar1","comName":"Western Marsh Harrier","sciName":"Circus aeruginosus","locId":"L28430814","locName":"Kanal na Karakol","obsDt":"2025-04-05 15:18","howMany":3,"lat":43.5939952,"lng":51.2763148,"obsValid":true,"obsReviewed":false,"locationPrivate":true,"subId":"S223062778"},{"speciesCode":"grecor","comName":"Great Cormorant","sciName":"Phalacrocorax carbo","locId":"L28430814","locName":"Kanal na Karakol","obsDt":"2025-04-05 15:18","lat":43.5939952,"lng":51.2763148,"obsValid":true,"obsReviewed":false,"locationPrivate":true,"subId":"S223062778"},{"speciesCode":"greegr","comName":"Great Egret","sciName":"Ardea alba","locId":"L28430814","locName":"Kanal na Karakol","obsDt":"2025-04-05 15:18","howMany":3,"lat":43.5939952,"lng":51.2763148,"obsValid":true,"obsReviewed":false,"locationPrivate":true,"subId":"S223062778"},{"speciesCode":"comchi1","comName":"Common Chiffchaff","sciName":"Phylloscopus collybita","locId":"L28430814","locName":"Kanal na Karakol","obsDt":"2025-04-05 15:18","howMany":3,"lat":43.5939952,"lng":51.2763148,"obsValid":true,"obsReviewed":false,"locationPrivate":true,"subId":"S223062778"},{"speciesCode":"dunlin","comName":"Dunlin","sciName":"Calidris alpina","locId":"L28430814","locName":"Kanal na Karakol","obsDt":"2025-04-05 15:18","howMany":10,"lat":43.5939952,"lng":51.2763148,"obsValid":true,"obsReviewed":false,"locationPrivate":true,"subId":"S223062778"},{"speciesCode":"bkhgul","comName":"Black-headed Gull","sciName":"Chroicocephalus ridibundus","locId":"L28430814","locName":"Kanal na Karakol","obsDt":"2025-04-05 15:18","lat":43.5939952,"lng":51.2763148,"obsValid":true,"obsReviewed":false,"locationPrivate":true,"subId":"S223062778"},{"speciesCode":"mutswa","comName":"Mute Swan","sciName":"Cygnus olor","locId":"L28430814","locName":"Kanal na Karakol","obsDt":"2025-04-05 15:18","lat":43.5939952,"lng":51.2763148,"obsValid":true,"obsReviewed":false,"locationPrivate":true,"subId":"S223062778"},{"speciesCode":"comsni","comName":"Common Snipe","sciName":"Gallinago gallinago","locId":"L28430814","locName":"Kanal na Karakol","obsDt":"2025-04-05 15:18","howMany":1,"lat":43.5939952,"lng":51.2763148,"obsValid":true,"obsReviewed":false,"locationPrivate":true,"subId":"S223062778"},{"speciesCode":"eurkes","comName":"Eurasian Kestrel","sciName":"Falco tinnunculus","locId":"L28430814","locName":"Kanal na Karakol","obsDt":"2025-04-05 15:18","howMany":1,"lat":43.5939952,"lng":51.2763148,"obsValid":true,"obsReviewed":false,"locationPrivate":true,"subId":"S223062778"},{"speciesCode":"eurcoo","comName":"Eurasian Coot","sciName":"Fulica atra","locId":"L28430814","locName":"Kanal na Karakol","obsDt":"2025-04-05 15:18","howMany":2,"lat":43.5939952,"lng":51.2763148,"obsValid":true,"obsReviewed":false,"locationPrivate":true,"subId":"S223062778"},{"speciesCode":"citwag","comName":"Citrine Wagtail","sciName":"Motacilla citreola","locId":"L28430814","locName":"Kanal na Karakol","obsDt":"2025-04-05 15:18","howMany":1,"lat":43.5939952,"lng":51.2763148,"obsValid":true,"obsReviewed":false,"locationPrivate":true,"subId":"S223062778"},{"speciesCode":"eaywag1","comName":"Western Yellow Wagtail","sciName":"Motacilla flava","locId":"L28430814","locName":"Kanal na Karakol","obsDt":"2025-04-05 15:18","howMany":1,"lat":43.5939952,"lng":51.2763148,"obsValid":true,"obsReviewed":false,"locationPrivate":true,"subId":"S223062778"},{"speciesCode":"barswa","comName":"Barn Swallow","sciName":"Hirundo rustica","locId":"L28430814","locName":"Kanal na Karakol","obsDt":"2025-04-05 15:18","howMany":2,"lat":43.5939952,"lng":51.2763148,"obsValid":true,"obsReviewed":false,"locationPrivate":true,"subId":"S223062778"},{"speciesCode":"bcnher","comName":"Black-crowned Night Heron","sciName":"Nycticorax nycticorax","locId":"L28430814","locName":"Kanal na Karakol","obsDt":"2025-04-05 15:18","howMany":1,"lat":43.5939952,"lng":51.2763148,"obsValid":true,"obsReviewed":false,"locationPrivate":true,"subId":"S223062778"},{"speciesCode":"sibsto1","comName":"Siberian Stonechat","sciName":"Saxicola maurus","locId":"L28430814","locName":"Kanal na Karakol","obsDt":"2025-04-05 15:18","howMany":3,"lat":43.5939952,"lng":51.2763148,"obsValid":true,"obsReviewed":false,"locationPrivate":true,"subId":"S223062778"},{"speciesCode":"rocpig","comName":"Rock Pigeon","sciName":"Columba livia","locId":"L28430814","locName":"Kanal na Karakol","obsDt":"2025-04-05 15:18","lat":43.5939952,"lng":51.2763148,"obsValid":true,"obsReviewed":false,"locationPrivate":true,"subId":"S223062778","exoticCategory":"N"},{"speciesCode":"casgul2","comName":"Caspian Gull","sciName":"Larus cachinnans","locId":"L28430814","locName":"Kanal na Karakol","obsDt":"2025-04-05 15:18","lat":43.5939952,"lng":51.2763148,"obsValid":true,"obsReviewed":false,"locationPrivate":true,"subId":"S223062778"},{"speciesCode":"cowpig1","comName":"Common Wood-Pigeon","sciName":"Columba palumbus","locId":"L18730672","locName":"Baiterek district","obsDt":"2025-04-05 14:44","howMany":10,"lat":51.3640217,"lng":51.36274,"obsValid":true,"obsReviewed":false,"locationPrivate":true,"subId":"S223048860"},{"speciesCode":"rook1","comName":"Rook","sciName":"Corvus frugilegus","locId":"L18730672","locName":"Baiterek district","obsDt":"2025-04-05 14:44","howMany":100,"lat":51.3640217,"lng":51.36274,"obsValid":true,"obsReviewed":false,"locationPrivate":true,"subId":"S223048860"},{"speciesCode":"eursta","comName":"European Starling","sciName":"Sturnus vulgaris","locId":"L18730672","locName":"Baiterek district","obsDt":"2025-04-05 14:44","howMany":8,"lat":51.3640217,"lng":51.36274,"obsValid":true,"obsReviewed":false,"locationPrivate":true,"subId":"S223048860"},{"speciesCode":"gretit1","comName":"Great Tit","sciName":"Parus major","locId":"L42113691","locName":"Auto selected 43.24283, 76.95870","obsDt":"2025-04-05 13:12","howMany":1,"lat":43.242829,"lng":76.958699,"obsValid":true,"obsReviewed":false,"locationPrivate":true,"subId":"S223033133"},{"speciesCode":"yebcho1","comName":"Yellow-billed Chough","sciName":"Pyrrhocorax graculus","locId":"L42113691","locName":"Auto selected 43.24283, 76.95870","obsDt":"2025-04-05 13:12","howMany":2,"lat":43.242829,"lng":76.958699,"obsValid":true,"obsReviewed":false,"locationPrivate":true,"subId":"S223033133"},{"speciesCode":"coatit2","comName":"Coal Tit","sciName":"Periparus ater","locId":"L42113691","locName":"Auto selected 43.24283, 76.95870","obsDt":"2025-04-05 13:12","howMany":2,"lat":43.242829,"lng":76.958699,"obsValid":true,"obsReviewed":false,"locationPrivate":true,"subId":"S223033133"},{"speciesCode":"eurmag1","comName":"Eurasian Magpie","sciName":"Pica pica","locId":"L42113518","locName":"Auto selected 43.23302, 76.97644","obsDt":"2025-04-05 11:38","howMany":2,"lat":43.233021,"lng":76.976436,"obsValid":true,"obsReviewed":false,"locationPrivate":true,"subId":"S223032362"},{"speciesCode":"eutspa","comName":"Eurasian Tree Sparrow","sciName":"Passer montanus","locId":"L42113518","locName":"Auto selected 43.23302, 76.97644","obsDt":"2025-04-05 11:38","howMany":1,"lat":43.233021,"lng":76.976436,"obsValid":true,"obsReviewed":false,"locationPrivate":true,"subId":"S223032362"},{"speciesCode":"houspa","comName":"House Sparrow","sciName":"Passer domesticus","locId":"L42113518","locName":"Auto selected 43.23302, 76.97644","obsDt":"2025-04-05 11:38","howMany":2,"lat":43.233021,"lng":76.976436,"obsValid":true,"obsReviewed":false,"locationPrivate":true,"subId":"S223032362"},{"speciesCode":"hoopoe","comName":"Eurasian Hoopoe","sciName":"Upupa epops","locId":"L42113518","locName":"Auto selected 43.23302, 76.97644","obsDt":"2025-04-05 11:38","howMany":1,"lat":43.233021,"lng":76.976436,"obsValid":true,"obsReviewed":false,"locationPrivate":true,"subId":"S223032362"},{"speciesCode":"rebgoo1","comName":"Red-breasted Goose","sciName":"Branta ruficollis","locId":"L42111544","locName":"Bird's Monitoring Station","obsDt":"2025-04-05 09:31","howMany":2,"lat":51.6472617,"lng":64.2270417,"obsValid":true,"obsReviewed":false,"locationPrivate":true,"subId":"S223022865"},{"speciesCode":"blakit1","comName":"Black Kite","sciName":"Milvus migrans","locId":"L42111544","locName":"Bird's Monitoring Station","obsDt":"2025-04-05 09:31","howMany":2,"lat":51.6472617,"lng":64.2270417,"obsValid":true,"obsReviewed":false,"locationPrivate":true,"subId":"S223022865"},{"speciesCode":"combuz1","comName":"Common Buzzard","sciName":"Buteo buteo","locId":"L42111544","locName":"Bird's Monitoring Station","obsDt":"2025-04-05 09:31","howMany":7,"lat":51.6472617,"lng":64.2270417,"obsValid":true,"obsReviewed":false,"locationPrivate":true,"subId":"S223022865"},{"speciesCode":"comcha","comName":"Common Chaffinch","sciName":"Fringilla coelebs","locId":"L42111544","locName":"Bird's Monitoring Station","obsDt":"2025-04-05 09:31","howMany":6,"lat":51.6472617,"lng":64.2270417,"obsValid":true,"obsReviewed":false,"locationPrivate":true,"subId":"S223022865"},{"speciesCode":"comcra","comName":"Common Crane","sciName":"Grus grus","locId":"L42111544","locName":"Bird's Monitoring Station","obsDt":"2025-04-05 09:31","howMany":37,"lat":51.6472617,"lng":64.2270417,"obsValid":true,"obsReviewed":false,"locationPrivate":true,"subId":"S223022865"},{"speciesCode":"palhar1","comName":"Pallid Harrier","sciName":"Circus macrourus","locId":"L42111544","locName":"Bird's Monitoring Station","obsDt":"2025-04-05 09:31","howMany":2,"lat":51.6472617,"lng":64.2270417,"obsValid":true,"obsReviewed":false,"locationPrivate":true,"subId":"S223022865"},{"speciesCode":"norlap","comName":"Northern Lapwing","sciName":"Vanellus vanellus","locId":"L42111544","locName":"Bird's Monitoring Station","obsDt":"2025-04-05 09:31","howMany":46,"lat":51.6472617,"lng":64.2270417,"obsValid":true,"obsReviewed":false,"locationPrivate":true,"subId":"S223022865"},{"speciesCode":"mewgul","comName":"Common Gull","sciName":"Larus canus","locId":"L42111544","locName":"Bird's Monitoring Station","obsDt":"2025-04-05 09:31","howMany":2,"lat":51.6472617,"lng":64.2270417,"obsValid":true,"obsReviewed":false,"locationPrivate":true,"subId":"S223022865"},{"speciesCode":"lwfgoo","comName":"Lesser White-fronted Goose","sciName":"Anser erythropus","locId":"L42111544","locName":"Bird's Monitoring Station","obsDt":"2025-04-05 09:31","howMany":1,"lat":51.6472617,"lng":64.2270417,"obsValid":true,"obsReviewed":false,"locationPrivate":true,"subId":"S223022865"},{"speciesCode":"lbbgul","comName":"Lesser Black-backed Gull","sciName":"Larus fuscus","locId":"L42111544","locName":"Bird's Monitoring Station","obsDt":"2025-04-05 09:31","howMany":4,"lat":51.6472617,"lng":64.2270417,"obsValid":true,"obsReviewed":false,"locationPrivate":true,"subId":"S223022865"},{"speciesCode":"gwfgoo","comName":"Greater White-fronted Goose","sciName":"Anser albifrons","locId":"L42111544","locName":"Bird's Monitoring Station","obsDt":"2025-04-05 09:31","howMany":670,"lat":51.6472617,"lng":64.2270417,"obsValid":true,"obsReviewed":false,"locationPrivate":true,"subId":"S223022865"},{"speciesCode":"hoocro1","comName":"Hooded Crow","sciName":"Corvus cornix","locId":"L21981594","locName":"14 Mkr","obsDt":"2025-04-05 09:16","howMany":2,"lat":43.6539616,"lng":51.1452439,"obsValid":true,"obsReviewed":false,"locationPrivate":true,"subId":"S223019714"},{"speciesCode":"comsan","comName":"Common Sandpiper","sciName":"Actitis hypoleucos","locId":"L21981594","locName":"14 Mkr","obsDt":"2025-04-05 09:16","howMany":1,"lat":43.6539616,"lng":51.1452439,"obsValid":true,"obsReviewed":false,"locationPrivate":true,"subId":"S223019714"},{"speciesCode":"slbgul1","comName":"Slender-billed Gull","sciName":"Chroicocephalus genei","locId":"L21981594","locName":"14 Mkr","obsDt":"2025-04-05 09:16","howMany":1,"lat":43.6539616,"lng":51.1452439,"obsValid":true,"obsReviewed":false,"locationPrivate":true,"subId":"S223019714"},{"speciesCode":"redwin","comName":"Redwing","sciName":"Turdus iliacus","locId":"L21981594","locName":"14 Mkr","obsDt":"2025-04-05 09:16","howMany":4,"lat":43.6539616,"lng":51.1452439,"obsValid":true,"obsReviewed":false,"locationPrivate":true,"subId":"S223019714"},{"speciesCode":"blueth","comName":"Bluethroat","sciName":"Luscinia svecica","locId":"L35187421","locName":"Wtf","obsDt":"2025-04-05 07:34","howMany":6,"lat":46.268391,"lng":53.40243,"obsValid":true,"obsReviewed":false,"locationPrivate":true,"subId":"S223015352"},{"speciesCode":"pieavo1","comName":"Pied Avocet","sciName":"Recurvirostra avosetta","locId":"L35187421","locName":"Wtf","obsDt":"2025-04-05 07:34","howMany":6,"lat":46.268391,"lng":53.40243,"obsValid":true,"obsReviewed":false,"locationPrivate":true,"subId":"S223015352"},{"speciesCode":"grcgre1","comName":"Great Crested Grebe","sciName":"Podiceps cristatus","locId":"L35187421","locName":"Wtf","obsDt":"2025-04-05 07:34","howMany":2,"lat":46.268391,"lng":53.40243,"obsValid":true,"obsReviewed":false,"locationPrivate":true,"subId":"S223015352"},{"speciesCode":"gnwtea","comName":"Green-winged Teal","sciName":"Anas crecca","locId":"L35187421","locName":"Wtf","obsDt":"2025-04-05 07:34","howMany":2,"lat":46.268391,"lng":53.40243,"obsValid":true,"obsReviewed":false,"locationPrivate":true,"subId":"S223015352"},{"speciesCode":"comshe","comName":"Common Shelduck","sciName":"Tadorna tadorna","locId":"L35187421","locName":"Wtf","obsDt":"2025-04-05 07:34","howMany":10,"lat":46.268391,"lng":53.40243,"obsValid":true,"obsReviewed":false,"locationPrivate":true,"subId":"S223015352"},{"speciesCode":"recpoc","comName":"Red-crested Pochard","sciName":"Netta rufina","locId":"L35187421","locName":"Wtf","obsDt":"2025-04-05 07:34","howMany":12,"lat":46.268391,"lng":53.40243,"obsValid":true,"obsReviewed":false,"locationPrivate":true,"subId":"S223015352"},{"speciesCode":"bearee1","comName":"Bearded Reedling","sciName":"Panurus biarmicus","locId":"L35187421","locName":"Wtf","obsDt":"2025-04-05 07:34","howMany":8,"lat":46.268391,"lng":53.40243,"obsValid":true,"obsReviewed":false,"locationPrivate":true,"subId":"S223015352"},{"speciesCode":"compoc","comName":"Common Pochard","sciName":"Aythya ferina","locId":"L35187421","locName":"Wtf","obsDt":"2025-04-05 07:34","howMany":8,"lat":46.268391,"lng":53.40243,"obsValid":true,"obsReviewed":false,"locationPrivate":true,"subId":"S223015352"},{"speciesCode":"reebun","comName":"Reed Bunting","sciName":"Emberiza schoeniclus","locId":"L35187421","locName":"Wtf","obsDt":"2025-04-05 07:34","howMany":10,"lat":46.268391,"lng":53.40243,"obsValid":true,"obsReviewed":false,"locationPrivate":true,"subId":"S223015352"},{"speciesCode":"grnsan","comName":"Green Sandpiper","sciName":"Tringa ochropus","locId":"L35187421","locName":"Wtf","obsDt":"2025-04-05 07:34","howMany":4,"lat":46.268391,"lng":53.40243,"obsValid":true,"obsReviewed":false,"locationPrivate":true,"subId":"S223015352"},{"speciesCode":"whhduc1","comName":"White-headed Duck","sciName":"Oxyura leucocephala","locId":"L35187421","locName":"Wtf","obsDt":"2025-04-05 07:34","howMany":16,"lat":46.268391,"lng":53.40243,"obsValid":true,"obsReviewed":false,"locationPrivate":true,"subId":"S223015352"},{"speciesCode":"sonthr1","comName":"Song Thrush","sciName":"Turdus philomelos","locId":"L21663311","locName":"14-15 Mkr. Zhagalau","obsDt":"2025-04-04 15:24","howMany":1,"lat":43.653166,"lng":51.1390278,"obsValid":true,"obsReviewed":false,"locationPrivate":true,"subId":"S222830443"},{"speciesCode":"isawhe1","comName":"Isabelline Wheatear","sciName":"Oenanthe isabellina","locId":"L21663311","locName":"14-15 Mkr. Zhagalau","obsDt":"2025-04-04 15:24","lat":43.653166,"lng":51.1390278,"obsValid":true,"obsReviewed":false,"locationPrivate":true,"subId":"S222830443"},{"speciesCode":"norwhe","comName":"Northern Wheatear","sciName":"Oenanthe oenanthe","locId":"L21663311","locName":"14-15 Mkr. Zhagalau","obsDt":"2025-04-04 15:24","howMany":2,"lat":43.653166,"lng":51.1390278,"obsValid":true,"obsReviewed":false,"locationPrivate":true,"subId":"S222830443"},{"speciesCode":"comkin1","comName":"Common Kingfisher","sciName":"Alcedo atthis","locId":"L21663311","locName":"14-15 Mkr. Zhagalau","obsDt":"2025-04-04 15:24","howMany":1,"lat":43.653166,"lng":51.1390278,"obsValid":true,"obsReviewed":false,"locationPrivate":true,"subId":"S222830443"},{"speciesCode":"eutkne1","comName":"Eurasian Thick-knee","sciName":"Burhinus oedicnemus","locId":"L21663311","locName":"14-15 Mkr. Zhagalau","obsDt":"2025-04-04 15:24","howMany":1,"lat":43.653166,"lng":51.1390278,"obsValid":true,"obsReviewed":false,"locationPrivate":true,"subId":"S222830443"},{"speciesCode":"grywag","comName":"Gray Wagtail","sciName":"Motacilla cinerea","locId":"L21663311","locName":"14-15 Mkr. Zhagalau","obsDt":"2025-04-04 15:24","howMany":1,"lat":43.653166,"lng":51.1390278,"obsValid":true,"obsReviewed":false,"locationPrivate":true,"subId":"S222830443"},{"speciesCode":"watpip1","comName":"Water Pipit","sciName":"Anthus spinoletta","locId":"L21663311","locName":"14-15 Mkr. Zhagalau","obsDt":"2025-04-04 15:24","howMany":2,"lat":43.653166,"lng":51.1390278,"obsValid":true,"obsReviewed":false,"locationPrivate":true,"subId":"S222830443"},{"speciesCode":"eurgre1","comName":"European Greenfinch","sciName":"Chloris chloris","locId":"L42070865","locName":"Karluga","obsDt":"2025-04-04 12:30","howMany":2,"lat":54.629811,"lng":68.902647,"obsValid":true,"obsReviewed":false,"locationPrivate":true,"subId":"S222815280"},{"speciesCode":"lottit1","comName":"Long-tailed Tit","sciName":"Aegithalos caudatus","locId":"L42070865","locName":"Karluga","obsDt":"2025-04-04 12:30","howMany":1,"lat":54.629811,"lng":68.902647,"obsValid":true,"obsReviewed":false,"locationPrivate":true,"subId":"S222815280"},{"speciesCode":"fieldf","comName":"Fieldfare","sciName":"Turdus pilaris","locId":"L42070865","locName":"Karluga","obsDt":"2025-04-04 12:30","howMany":2,"lat":54.629811,"lng":68.902647,"obsValid":true,"obsReviewed":false,"locationPrivate":true,"subId":"S222815280"},{"speciesCode":"yellow2","comName":"Yellowhammer","sciName":"Emberiza citrinella","locId":"L42070865","locName":"Karluga","obsDt":"2025-04-04 12:30","howMany":2,"lat":54.629811,"lng":68.902647,"obsValid":true,"obsReviewed":false,"locationPrivate":true,"subId":"S222815280"},{"speciesCode":"rudshe","comName":"Ruddy Shelduck","sciName":"Tadorna ferruginea","locId":"L42065176","locName":"Auto selected 43.33265, 75.62696","obsDt":"2025-04-04 11:00","howMany":2,"lat":43.332645,"lng":75.626964,"obsValid":true,"obsReviewed":false,"locationPrivate":true,"subId":"S222788600"},{"speciesCode":"commyn","comName":"Common Myna","sciName":"Acridotheres tristis","locId":"L42063991","locName":"Auto selected 43.40088, 75.11143","obsDt":"2025-04-04 10:21","howMany":5,"lat":43.400879,"lng":75.111435,"obsValid":true,"obsReviewed":false,"locationPrivate":true,"subId":"S222782049"},{"speciesCode":"eurrob1","comName":"European Robin","sciName":"Erithacus rubecula","locId":"L27506645","locName":"Улица Абылайхана, Докучаевка, Костанайская область, KZ (51,65, 64,227)","obsDt":"2025-04-04 08:33","howMany":2,"lat":51.649505,"lng":64.22704,"obsValid":true,"obsReviewed":false,"locationPrivate":true,"subId":"S222779564"},{"speciesCode":"eurcur","comName":"Eurasian Curlew","sciName":"Numenius arquata","locId":"L27506645","locName":"Улица Абылайхана, Докучаевка, Костанайская область, KZ (51,65, 64,227)","obsDt":"2025-04-04 08:33","howMany":2,"lat":51.649505,"lng":64.22704,"obsValid":true,"obsReviewed":false,"locationPrivate":true,"subId":"S222779564"},{"speciesCode":"hawfin","comName":"Hawfinch","sciName":"Coccothraustes coccothraustes","locId":"L27506645","locName":"Улица Абылайхана, Докучаевка, Костанайская область, KZ (51,65, 64,227)","obsDt":"2025-04-04 08:33","howMany":2,"lat":51.649505,"lng":64.22704,"obsValid":true,"obsReviewed":false,"locationPrivate":true,"subId":"S222779564"},{"speciesCode":"whoswa","comName":"Whooper Swan","sciName":"Cygnus cygnus","locId":"L27506645","locName":"Улица Абылайхана, Докучаевка, Костанайская область, KZ (51,65, 64,227)","obsDt":"2025-04-04 08:33","howMany":2,"lat":51.649505,"lng":64.22704,"obsValid":true,"obsReviewed":false,"locationPrivate":true,"subId":"S222779564"},{"speciesCode":"callar1","comName":"Calandra Lark","sciName":"Melanocorypha calandra","locId":"L42062975","locName":"Auto selected 46.04936, 53.39716","obsDt":"2025-04-04 08:14","howMany":2,"lat":46.049361,"lng":53.397165,"obsValid":true,"obsReviewed":false,"locationPrivate":true,"subId":"S222776594"},{"speciesCode":"gstlar1","comName":"Greater Short-toed Lark","sciName":"Calandrella brachydactyla","locId":"L42062975","locName":"Auto selected 46.04936, 53.39716","obsDt":"2025-04-04 08:14","howMany":8,"lat":46.049361,"lng":53.397165,"obsValid":true,"obsReviewed":false,"locationPrivate":true,"subId":"S222776594"},{"speciesCode":"eursco1","comName":"Eurasian Scops-Owl","sciName":"Otus scops","locId":"L42023032","locName":"Auto selected 42.43786, 70.48380","obsDt":"2025-04-04 04:54","howMany":1,"lat":42.437864,"lng":70.483802,"obsValid":true,"obsReviewed":false,"locationPrivate":true,"subId":"S222757355"},{"speciesCode":"norpin","comName":"Northern Pintail","sciName":"Anas acuta","locId":"L36987944","locName":"Karamendy, N.Sagadieva street","obsDt":"2025-04-03 18:26","howMany":1,"lat":51.6483017,"lng":64.2282049,"obsValid":true,"obsReviewed":false,"locationPrivate":true,"subId":"S222646858"},{"speciesCode":"gadwal","comName":"Gadwall","sciName":"Mareca strepera","locId":"L42034909","locName":"R-44, Жамбыл, KZ (42,963, 70,876)","obsDt":"2025-04-03 18:12","lat":42.9626026,"lng":70.8759815,"obsValid":true,"obsReviewed":false,"locationPrivate":true,"subId":"S222633458"},{"speciesCode":"norsho","comName":"Northern Shoveler","sciName":"Spatula clypeata","locId":"L42034909","locName":"R-44, Жамбыл, KZ (42,963, 70,876)","obsDt":"2025-04-03 18:12","lat":42.9626026,"lng":70.8759815,"obsValid":true,"obsReviewed":false,"locationPrivate":true,"subId":"S222633458"},{"speciesCode":"bkwsti","comName":"Black-winged Stilt","sciName":"Himantopus himantopus","locId":"L42034909","locName":"R-44, Жамбыл, KZ (42,963, 70,876)","obsDt":"2025-04-03 18:12","howMany":7,"lat":42.9626026,"lng":70.8759815,"obsValid":true,"obsReviewed":false,"locationPrivate":true,"subId":"S222633458"},{"speciesCode":"gargan","comName":"Garganey","sciName":"Spatula querquedula","locId":"L42034909","locName":"R-44, Жамбыл, KZ (42,963, 70,876)","obsDt":"2025-04-03 18:12","lat":42.9626026,"lng":70.8759815,"obsValid":true,"obsReviewed":false,"locationPrivate":true,"subId":"S222633458"},{"speciesCode":"comred1","comName":"Common Redshank","sciName":"Tringa totanus","locId":"L42034909","locName":"R-44, Жамбыл, KZ (42,963, 70,876)","obsDt":"2025-04-03 18:12","lat":42.9626026,"lng":70.8759815,"obsValid":true,"obsReviewed":false,"locationPrivate":true,"subId":"S222633458"},{"speciesCode":"eucdov","comName":"Eurasian Collared-Dove","sciName":"Streptopelia decaocto","locId":"L34963163","locName":"Karat","obsDt":"2025-04-03 17:35","howMany":1,"lat":46.308775,"lng":53.441489,"obsValid":true,"obsReviewed":false,"locationPrivate":true,"subId":"S222625169"},{"speciesCode":"tufduc","comName":"Tufted Duck","sciName":"Aythya fuligula","locId":"L42034936","locName":"Тараз-Аса тас жолы, Жамбыл, KZ (43,015, 71,192)","obsDt":"2025-04-03 16:58","lat":43.0146482,"lng":71.1920276,"obsValid":true,"obsReviewed":false,"locationPrivate":true,"subId":"S222633582"},{"speciesCode":"banswa","comName":"Bank Swallow","sciName":"Riparia riparia","locId":"L28497141","locName":"Kanal - 1","obsDt":"2025-04-03 16:04","howMany":2,"lat":43.5976795,"lng":51.2793581,"obsValid":true,"obsReviewed":false,"locationPrivate":true,"subId":"S222630454"},{"speciesCode":"eurwig","comName":"Eurasian Wigeon","sciName":"Mareca penelope","locId":"L42029893","locName":"M-36, Almaty Region, KZ (43,635, 76,541)","obsDt":"2025-04-03 15:19","lat":43.6347667,"lng":76.5411467,"obsValid":true,"obsReviewed":false,"locationPrivate":true,"subId":"S222604331"},{"speciesCode":"lirplo","comName":"Little Ringed Plover","sciName":"Thinornis dubius","locId":"L42029893","locName":"M-36, Almaty Region, KZ (43,635, 76,541)","obsDt":"2025-04-03 15:19","lat":43.6347667,"lng":76.5411467,"obsValid":true,"obsReviewed":false,"locationPrivate":true,"subId":"S222604331"},{"speciesCode":"bohwax","comName":"Bohemian Waxwing","sciName":"Bombycilla garrulus","locId":"L42030867","locName":"Pine-tree Lush near Pestroye Lake","obsDt":"2025-04-03 12:00","howMany":20,"lat":54.823318,"lng":69.120741,"obsValid":true,"obsReviewed":false,"locationPrivate":true,"subId":"S222609742"},{"speciesCode":"wiltit1","comName":"Willow Tit","sciName":"Poecile montanus","locId":"L42030867","locName":"Pine-tree Lush near Pestroye Lake","obsDt":"2025-04-03 12:00","howMany":1,"lat":54.823318,"lng":69.120741,"obsValid":true,"obsReviewed":false,"locationPrivate":true,"subId":"S222609742"},{"speciesCode":"comred2","comName":"Common Redstart","sciName":"Phoenicurus phoenicurus","locId":"L27506645","locName":"Улица Абылайхана, Докучаевка, Костанайская область, KZ (51,65, 64,227)","obsDt":"2025-04-03 09:10","howMany":1,"lat":51.649505,"lng":64.22704,"obsValid":true,"obsReviewed":false,"locationPrivate":true,"subId":"S222580064"},{"speciesCode":"tunswa","comName":"Tundra Swan","sciName":"Cygnus columbianus","locId":"L27506645","locName":"Улица Абылайхана, Докучаевка, Костанайская область, KZ (51,65, 64,227)","obsDt":"2025-04-03 09:10","howMany":3,"lat":51.649505,"lng":64.22704,"obsValid":true,"obsReviewed":false,"locationPrivate":true,"subId":"S222580064"},{"speciesCode":"gbhgul2","comName":"Pallas's Gull","sciName":"Ichthyaetus ichthyaetus","locId":"L39793974","locName":"7A Zhagalau","obsDt":"2025-04-03 09:00","howMany":1,"lat":43.6412191,"lng":51.1499933,"obsValid":true,"obsReviewed":false,"locationPrivate":true,"subId":"S222577973"},{"speciesCode":"grswoo","comName":"Great Spotted Woodpecker","sciName":"Dendrocopos major","locId":"L39460847","locName":"Петропавловск, Северо-Казахстанская область, KZ (54,856, 69,14). Парк Первого Президента Республики Казахстан","obsDt":"2025-04-02 18:19","howMany":1,"lat":54.8561322,"lng":69.1396306,"obsValid":true,"obsReviewed":false,"locationPrivate":true,"subId":"S222453012"},{"speciesCode":"eargre","comName":"Eared Grebe","sciName":"Podiceps nigricollis","locId":"L23402097","locName":"Скальная тропа","obsDt":"2025-04-02 15:21","howMany":8,"lat":43.6259616,"lng":51.1662642,"obsValid":true,"obsReviewed":false,"locationPrivate":true,"subId":"S222428833"},{"speciesCode":"cinvul1","comName":"Cinereous Vulture","sciName":"Aegypius monachus","locId":"L41990942","locName":"Auto selected 42.37780, 70.37396","obsDt":"2025-04-02 10:01","howMany":1,"lat":42.377797,"lng":70.373964,"obsValid":true,"obsReviewed":false,"locationPrivate":true,"subId":"S222404826"},{"speciesCode":"steeag1","comName":"Steppe Eagle","sciName":"Aquila nipalensis","locId":"L36987944","locName":"Karamendy, N.Sagadieva street","obsDt":"2025-04-02 08:56","howMany":1,"lat":51.6483017,"lng":64.2282049,"obsValid":true,"obsReviewed":false,"locationPrivate":true,"subId":"S222394170"},{"speciesCode":"demcra1","comName":"Demoiselle Crane","sciName":"Anthropoides virgo","locId":"L36987944","locName":"Karamendy, N.Sagadieva street","obsDt":"2025-04-02 08:56","howMany":2,"lat":51.6483017,"lng":64.2282049,"obsValid":true,"obsReviewed":false,"locationPrivate":true,"subId":"S222394170"},{"speciesCode":"gloibi","comName":"Glossy Ibis","sciName":"Plegadis falcinellus","locId":"L35521437","locName":"Vaternas","obsDt":"2025-04-02 07:42","howMany":1,"lat":46.365725,"lng":53.462273,"obsValid":true,"obsReviewed":false,"locationPrivate":true,"subId":"S222388673"},{"speciesCode":"crelar1","comName":"Crested Lark","sciName":"Galerida cristata","locId":"L35521437","locName":"Vaternas","obsDt":"2025-04-02 07:42","howMany":1,"lat":46.365725,"lng":53.462273,"obsValid":true,"obsReviewed":false,"locationPrivate":true,"subId":"S222388673"},{"speciesCode":"carcro1","comName":"Carrion Crow","sciName":"Corvus corone","locId":"L35521437","locName":"Vaternas","obsDt":"2025-04-02 07:42","howMany":1,"lat":46.365725,"lng":53.462273,"obsValid":true,"obsReviewed":false,"locationPrivate":true,"subId":"S222388673"},{"speciesCode":"piewhe1","comName":"Pied Wheatear","sciName":"Oenanthe pleschanka","locId":"L8920801","locName":"Sheikh Khalifa Houbara Breeding Center (restricted access)","obsDt":"2025-04-01 17:28","howMany":6,"lat":42.9784629,"lng":69.513792,"obsValid":true,"obsReviewed":false,"locationPrivate":false,"subId":"S222296243"},{"speciesCode":"norshr1","comName":"Great Gray Shrike","sciName":"Lanius excubitor","locId":"L8920801","locName":"Sheikh Khalifa Houbara Breeding Center (restricted access)","obsDt":"2025-04-01 17:28","howMany":2,"lat":42.9784629,"lng":69.513792,"obsValid":true,"obsReviewed":false,"locationPrivate":false,"subId":"S222296243"},{"speciesCode":"lolbuz1","comName":"Long-legged Buzzard","sciName":"Buteo rufinus","locId":"L8920801","locName":"Sheikh Khalifa Houbara Breeding Center (restricted access)","obsDt":"2025-04-01 17:28","howMany":1,"lat":42.9784629,"lng":69.513792,"obsValid":true,"obsReviewed":false,"locationPrivate":false,"subId":"S222296243"},{"speciesCode":"monhar1","comName":"Montagu's Harrier","sciName":"Circus pygargus","locId":"L8920801","locName":"Sheikh Khalifa Houbara Breeding Center (restricted access)","obsDt":"2025-04-01 17:28","howMany":1,"lat":42.9784629,"lng":69.513792,"obsValid":true,"obsReviewed":false,"locationPrivate":false,"subId":"S222296243"},{"speciesCode":"corbun1","comName":"Corn Bunting","sciName":"Emberiza calandra","locId":"L8920801","locName":"Sheikh Khalifa Houbara Breeding Center (restricted access)","obsDt":"2025-04-01 17:28","lat":42.9784629,"lng":69.513792,"obsValid":true,"obsReviewed":false,"locationPrivate":false,"subId":"S222296243"},{"speciesCode":"trepip","comName":"Tree Pipit","sciName":"Anthus trivialis","locId":"L8920801","locName":"Sheikh Khalifa Houbara Breeding Center (restricted access)","obsDt":"2025-04-01 17:28","lat":42.9784629,"lng":69.513792,"obsValid":true,"obsReviewed":false,"locationPrivate":false,"subId":"S222296243"},{"speciesCode":"deswhe1","comName":"Desert Wheatear","sciName":"Oenanthe deserti","locId":"L8920801","locName":"Sheikh Khalifa Houbara Breeding Center (restricted access)","obsDt":"2025-04-01 17:28","howMany":3,"lat":42.9784629,"lng":69.513792,"obsValid":true,"obsReviewed":false,"locationPrivate":false,"subId":"S222296243"},{"speciesCode":"litbus1","comName":"Little Bustard","sciName":"Tetrax tetrax","locId":"L8920801","locName":"Sheikh Khalifa Houbara Breeding Center (restricted access)","obsDt":"2025-04-01 17:28","lat":42.9784629,"lng":69.513792,"obsValid":true,"obsReviewed":false,"locationPrivate":false,"subId":"S222296243"},{"speciesCode":"desfin2","comName":"Desert Finch","sciName":"Rhodospiza obsoleta","locId":"L34963163","locName":"Karat","obsDt":"2025-04-01 17:10","howMany":2,"lat":46.308775,"lng":53.441489,"obsValid":true,"obsReviewed":false,"locationPrivate":true,"subId":"S222250175"},{"speciesCode":"pygcor2","comName":"Pygmy Cormorant","sciName":"Microcarbo pygmaeus","locId":"L28497141","locName":"Kanal - 1","obsDt":"2025-04-01 15:41","howMany":2,"lat":43.5976795,"lng":51.2793581,"obsValid":true,"obsReviewed":false,"locationPrivate":true,"subId":"S222245964"},{"speciesCode":"comrav","comName":"Common Raven","sciName":"Corvus corax","locId":"L36987944","locName":"Karamendy, N.Sagadieva street","obsDt":"2025-04-01 09:37","howMany":2,"lat":51.6483017,"lng":64.2282049,"obsValid":true,"obsReviewed":false,"locationPrivate":true,"subId":"S222211244"},{"speciesCode":"brambl","comName":"Brambling","sciName":"Fringilla montifringilla","locId":"L36987944","locName":"Karamendy, N.Sagadieva street","obsDt":"2025-04-01 09:37","howMany":2,"lat":51.6483017,"lng":64.2282049,"obsValid":true,"obsReviewed":false,"locationPrivate":true,"subId":"S222211244"},{"speciesCode":"eurspa1","comName":"Eurasian Sparrowhawk","sciName":"Accipiter nisus","locId":"L36987944","locName":"Karamendy, N.Sagadieva street","obsDt":"2025-04-01 09:37","howMany":4,"lat":51.6483017,"lng":64.2282049,"obsValid":true,"obsReviewed":false,"locationPrivate":true,"subId":"S222211244"},{"speciesCode":"gragoo","comName":"Graylag Goose","sciName":"Anser anser","locId":"L36987944","locName":"Karamendy, N.Sagadieva street","obsDt":"2025-04-01 09:37","howMany":5,"lat":51.6483017,"lng":64.2282049,"obsValid":true,"obsReviewed":false,"locationPrivate":true,"subId":"S222211244"},{"speciesCode":"marsan","comName":"Marsh Sandpiper","sciName":"Tringa stagnatilis","locId":"L36987944","locName":"Karamendy, N.Sagadieva street","obsDt":"2025-04-01 09:37","howMany":2,"lat":51.6483017,"lng":64.2282049,"obsValid":true,"obsReviewed":false,"locationPrivate":true,"subId":"S222211244"},{"speciesCode":"eurbla","comName":"Eurasian Blackbird","sciName":"Turdus merula","locId":"L36987944","locName":"Karamendy, N.Sagadieva street","obsDt":"2025-04-01 09:37","howMany":1,"lat":51.6483017,"lng":64.2282049,"obsValid":true,"obsReviewed":false,"locationPrivate":true,"subId":"S222211244"},{"speciesCode":"rutshr2","comName":"Red-tailed Shrike","sciName":"Lanius phoenicuroides","locId":"L8920801","locName":"Sheikh Khalifa Houbara Breeding Center (restricted access)","obsDt":"2025-04-01 09:17","howMany":1,"lat":42.9784629,"lng":69.513792,"obsValid":true,"obsReviewed":false,"locationPrivate":false,"subId":"S222296379"},{"speciesCode":"whwgro1","comName":"White-winged Grosbeak","sciName":"Mycerobas carnipes","locId":"L8216726","locName":"Ходжанова - Гагарина, трансект, Алматы, KZ (43,204, 76,905)","obsDt":"2025-04-01 08:00","howMany":1,"lat":43.2047231,"lng":76.9058849,"obsValid":true,"obsReviewed":false,"locationPrivate":true,"subId":"S222200305"},{"speciesCode":"kenplo1","comName":"Kentish Plover","sciName":"Anarhynchus alexandrinus","locId":"L23978848","locName":"Aktau--Sand Beach 2","obsDt":"2025-03-31 18:11","howMany":6,"lat":43.6254608,"lng":51.1929675,"obsValid":true,"obsReviewed":false,"locationPrivate":false,"subId":"S222060670"},{"speciesCode":"norgos1","comName":"Eurasian Goshawk","sciName":"Astur gentilis","locId":"L27506645","locName":"Улица Абылайхана, Докучаевка, Костанайская область, KZ (51,65, 64,227)","obsDt":"2025-03-31 14:51","howMany":1,"lat":51.649505,"lng":64.22704,"obsValid":true,"obsReviewed":false,"locationPrivate":true,"subId":"S222023249"},{"speciesCode":"eursis","comName":"Eurasian Siskin","sciName":"Spinus spinus","locId":"L27506645","locName":"Улица Абылайхана, Докучаевка, Костанайская область, KZ (51,65, 64,227)","obsDt":"2025-03-31 14:51","howMany":2,"lat":51.649505,"lng":64.22704,"obsValid":true,"obsReviewed":false,"locationPrivate":true,"subId":"S222023249"},{"speciesCode":"impeag1","comName":"Imperial Eagle","sciName":"Aquila heliaca","locId":"L27506645","locName":"Улица Абылайхана, Докучаевка, Костанайская область, KZ (51,65, 64,227)","obsDt":"2025-03-31 14:51","howMany":1,"lat":51.649505,"lng":64.22704,"obsValid":true,"obsReviewed":false,"locationPrivate":true,"subId":"S222023249"},{"speciesCode":"whteag","comName":"White-tailed Eagle","sciName":"Haliaeetus albicilla","locId":"L27506645","locName":"Улица Абылайхана, Докучаевка, Костанайская область, KZ (51,65, 64,227)","obsDt":"2025-03-31 14:51","howMany":1,"lat":51.649505,"lng":64.22704,"obsValid":true,"obsReviewed":false,"locationPrivate":true,"subId":"S222023249"},{"speciesCode":"blutit","comName":"Eurasian Blue Tit","sciName":"Cyanistes caeruleus","locId":"L30327775","locName":"Stella","obsDt":"2025-03-31","lat":51.1896595,"lng":51.3804016,"obsValid":true,"obsReviewed":false,"locationPrivate":true,"subId":"S222127674"},{"speciesCode":"eurlin1","comName":"Eurasian Linnet","sciName":"Linaria cannabina","locId":"L30327775","locName":"Stella","obsDt":"2025-03-31","lat":51.1896595,"lng":51.3804016,"obsValid":true,"obsReviewed":false,"locationPrivate":true,"subId":"S222127674"},{"speciesCode":"datthr1","comName":"Black-throated Thrush","sciName":"Turdus atrogularis","locId":"L2116817","locName":"Almaty--Botanical Garden","obsDt":"2025-03-30 10:44","howMany":6,"lat":43.2241293,"lng":76.9135076,"obsValid":true,"obsReviewed":false,"locationPrivate":false,"subId":"S221725765"},{"speciesCode":"rubred2","comName":"Rufous-backed Redstart","sciName":"Phoenicurus erythronotus","locId":"L2116817","locName":"Almaty--Botanical Garden","obsDt":"2025-03-30 10:44","howMany":2,"lat":43.2241293,"lng":76.9135076,"obsValid":true,"obsReviewed":false,"locationPrivate":false,"subId":"S221725765"},{"speciesCode":"azutit2","comName":"Azure Tit","sciName":"Cyanistes cyanus","locId":"L2116817","locName":"Almaty--Botanical Garden","obsDt":"2025-03-30 10:44","howMany":3,"lat":43.2241293,"lng":76.9135076,"obsValid":true,"obsReviewed":false,"locationPrivate":false,"subId":"S221725765"},{"speciesCode":"meapip1","comName":"Meadow Pipit","sciName":"Anthus pratensis","locId":"L2116817","locName":"Almaty--Botanical Garden","obsDt":"2025-03-30 10:44","howMany":1,"lat":43.2241293,"lng":76.9135076,"obsValid":true,"obsReviewed":false,"locationPrivate":false,"subId":"S221725765"},{"speciesCode":"bucred1","comName":"Blue-capped Redstart","sciName":"Phoenicurus coeruleocephala","locId":"L2116817","locName":"Almaty--Botanical Garden","obsDt":"2025-03-30 10:44","howMany":4,"lat":43.2241293,"lng":76.9135076,"obsValid":true,"obsReviewed":false,"locationPrivate":false,"subId":"S221725765"},{"speciesCode":"grwpel1","comName":"Great White Pelican","sciName":"Pelecanus onocrotalus","locId":"L21137837","locName":"Bogen Water Reservoir","obsDt":"2025-03-30 10:38","howMany":50,"lat":42.7289126,"lng":69.0320397,"obsValid":true,"obsReviewed":false,"locationPrivate":false,"subId":"S221719435"},{"speciesCode":"osprey","comName":"Osprey","sciName":"Pandion haliaetus","locId":"L21137837","locName":"Bogen Water Reservoir","obsDt":"2025-03-30 10:38","howMany":1,"lat":42.7289126,"lng":69.0320397,"obsValid":true,"obsReviewed":false,"locationPrivate":false,"subId":"S221719435"},{"speciesCode":"commer","comName":"Common Merganser","sciName":"Mergus merganser","locId":"L21137837","locName":"Bogen Water Reservoir","obsDt":"2025-03-30 10:38","howMany":4,"lat":42.7289126,"lng":69.0320397,"obsValid":true,"obsReviewed":false,"locationPrivate":false,"subId":"S221719435"},{"speciesCode":"litgul","comName":"Little Gull","sciName":"Hydrocoloeus minutus","locId":"L21137837","locName":"Bogen Water Reservoir","obsDt":"2025-03-30 10:38","howMany":1,"lat":42.7289126,"lng":69.0320397,"obsValid":true,"obsReviewed":false,"locationPrivate":false,"subId":"S221719435"},{"speciesCode":"grseag1","comName":"Greater Spotted Eagle","sciName":"Clanga clanga","locId":"L21137837","locName":"Bogen Water Reservoir","obsDt":"2025-03-30 10:06","howMany":1,"lat":42.7289126,"lng":69.0320397,"obsValid":true,"obsReviewed":false,"locationPrivate":false,"subId":"S221712170"},{"speciesCode":"loeowl","comName":"Long-eared Owl","sciName":"Asio otus","locId":"L34963163","locName":"Karat","obsDt":"2025-03-30 09:39","howMany":1,"lat":46.308775,"lng":53.441489,"obsValid":true,"obsReviewed":false,"locationPrivate":true,"subId":"S221717503"},{"speciesCode":"stodov1","comName":"Stock Dove","sciName":"Columba oenas","locId":"L27506645","locName":"Улица Абылайхана, Докучаевка, Костанайская область, KZ (51,65, 64,227)","obsDt":"2025-03-30 09:18","howMany":2,"lat":51.649505,"lng":64.22704,"obsValid":true,"obsReviewed":false,"locationPrivate":true,"subId":"S221720265"},{"speciesCode":"blared1","comName":"Black Redstart","sciName":"Phoenicurus ochruros","locId":"L1658747","locName":"Lake Sorbulaq--Southern Shore; (IBA KZ097)","obsDt":"2025-03-30 08:44","howMany":1,"lat":43.6288553,"lng":76.5657996,"obsValid":true,"obsReviewed":false,"locationPrivate":false,"subId":"S221749193"},{"speciesCode":"dalpel1","comName":"Dalmatian Pelican","sciName":"Pelecanus crispus","locId":"L1658747","locName":"Lake Sorbulaq--Southern Shore; (IBA KZ097)","obsDt":"2025-03-30 08:44","howMany":1,"lat":43.6288553,"lng":76.5657996,"obsValid":true,"obsReviewed":false,"locationPrivate":false,"subId":"S221749193"},{"speciesCode":"tawpip1","comName":"Tawny Pipit","sciName":"Anthus campestris","locId":"L8920801","locName":"Sheikh Khalifa Houbara Breeding Center (restricted access)","obsDt":"2025-03-29 16:31","howMany":1,"lat":42.9784629,"lng":69.513792,"obsValid":true,"obsReviewed":false,"locationPrivate":false,"subId":"S221488627"},{"speciesCode":"blbsan1","comName":"Black-bellied Sandgrouse","sciName":"Pterocles orientalis","locId":"L8920801","locName":"Sheikh Khalifa Houbara Breeding Center (restricted access)","obsDt":"2025-03-29 16:31","howMany":3,"lat":42.9784629,"lng":69.513792,"obsValid":true,"obsReviewed":false,"locationPrivate":false,"subId":"S221488627"},{"speciesCode":"grefla3","comName":"Greater Flamingo","sciName":"Phoenicopterus roseus","locId":"L23224686","locName":"Karakol lake, Mangystau Province, KZ","obsDt":"2025-03-29 12:26","howMany":9,"lat":43.5743687,"lng":51.2757542,"obsValid":true,"obsReviewed":false,"locationPrivate":true,"subId":"S221442425"},{"speciesCode":"ruff","comName":"Ruff","sciName":"Calidris pugnax","locId":"L23224686","locName":"Karakol lake, Mangystau Province, KZ","obsDt":"2025-03-29 12:26","howMany":20,"lat":43.5743687,"lng":51.2757542,"obsValid":true,"obsReviewed":false,"locationPrivate":true,"subId":"S221442425"},{"speciesCode":"eurspo1","comName":"Eurasian Spoonbill","sciName":"Platalea leucorodia","locId":"L23224686","locName":"Karakol lake, Mangystau Province, KZ","obsDt":"2025-03-29 12:26","howMany":3,"lat":43.5743687,"lng":51.2757542,"obsValid":true,"obsReviewed":false,"locationPrivate":true,"subId":"S221442425"},{"speciesCode":"pinbun","comName":"Pine Bunting","sciName":"Emberiza leucocephalos","locId":"L27506645","locName":"Улица Абылайхана, Докучаевка, Костанайская область, KZ (51,65, 64,227)","obsDt":"2025-03-29 09:31","howMany":2,"lat":51.649505,"lng":64.22704,"obsValid":true,"obsReviewed":false,"locationPrivate":true,"subId":"S221437007"},{"speciesCode":"comgol","comName":"Common Goldeneye","sciName":"Bucephala clangula","locId":"L27506645","locName":"Улица Абылайхана, Докучаевка, Костанайская область, KZ (51,65, 64,227)","obsDt":"2025-03-29 09:31","howMany":17,"lat":51.649505,"lng":64.22704,"obsValid":true,"obsReviewed":false,"locationPrivate":true,"subId":"S221437007"},{"speciesCode":"commoo3","comName":"Eurasian Moorhen","sciName":"Gallinula chloropus","locId":"L4994255","locName":"Lake Sorbulak--Eastern Ponds; (IBA KZ097)","obsDt":"2025-03-29 08:30","howMany":8,"lat":43.6419901,"lng":76.749106,"obsValid":true,"obsReviewed":false,"locationPrivate":false,"subId":"S221696777"},{"speciesCode":"uplbuz1","comName":"Upland Buzzard","sciName":"Buteo hemilasius","locId":"L4994255","locName":"Lake Sorbulak--Eastern Ponds; (IBA KZ097)","obsDt":"2025-03-29 08:30","howMany":1,"lat":43.6419901,"lng":76.749106,"obsValid":true,"obsReviewed":false,"locationPrivate":false,"subId":"S221696777"},{"speciesCode":"bltacc1","comName":"Black-throated Accentor","sciName":"Prunella atrogularis","locId":"L4994255","locName":"Lake Sorbulak--Eastern Ponds; (IBA KZ097)","obsDt":"2025-03-29 08:30","howMany":1,"lat":43.6419901,"lng":76.749106,"obsValid":true,"obsReviewed":false,"locationPrivate":false,"subId":"S221696777"},{"speciesCode":"ferduc","comName":"Ferruginous Duck","sciName":"Aythya nyroca","locId":"L4994255","locName":"Lake Sorbulak--Eastern Ponds; (IBA KZ097)","obsDt":"2025-03-29 08:30","howMany":6,"lat":43.6419901,"lng":76.749106,"obsValid":true,"obsReviewed":false,"locationPrivate":false,"subId":"S221696777"},{"speciesCode":"rinphe1","comName":"Ring-necked Pheasant","sciName":"Phasianus colchicus","locId":"L4994255","locName":"Lake Sorbulak--Eastern Ponds; (IBA KZ097)","obsDt":"2025-03-29 08:30","howMany":3,"lat":43.6419901,"lng":76.749106,"obsValid":true,"obsReviewed":false,"locationPrivate":false,"subId":"S221696777"},{"speciesCode":"cetwar1","comName":"Cetti's Warbler","sciName":"Cettia cetti","locId":"L4994255","locName":"Lake Sorbulak--Eastern Ponds; (IBA KZ097)","obsDt":"2025-03-29 08:30","howMany":1,"lat":43.6419901,"lng":76.749106,"obsValid":true,"obsReviewed":false,"locationPrivate":false,"subId":"S221696777"},{"speciesCode":"blasto1","comName":"Black Stork","sciName":"Ciconia nigra","locId":"L4994255","locName":"Lake Sorbulak--Eastern Ponds; (IBA KZ097)","obsDt":"2025-03-29 08:30","howMany":1,"lat":43.6419901,"lng":76.749106,"obsValid":true,"obsReviewed":false,"locationPrivate":false,"subId":"S221696777"},{"speciesCode":"litgre1","comName":"Little Grebe","sciName":"Tachybaptus ruficollis","locId":"L4994255","locName":"Lake Sorbulak--Eastern Ponds; (IBA KZ097)","obsDt":"2025-03-29 08:30","howMany":4,"lat":43.6419901,"lng":76.749106,"obsValid":true,"obsReviewed":false,"locationPrivate":false,"subId":"S221696777"},{"speciesCode":"isashr1","comName":"Isabelline Shrike","sciName":"Lanius isabellinus","locId":"L4994255","locName":"Lake Sorbulak--Eastern Ponds; (IBA KZ097)","obsDt":"2025-03-29 08:30","howMany":3,"lat":43.6419901,"lng":76.749106,"obsValid":true,"obsReviewed":false,"locationPrivate":false,"subId":"S221696777"},{"speciesCode":"shteag1","comName":"Short-toed Snake-Eagle","sciName":"Circaetus gallicus","locId":"L4994255","locName":"Lake Sorbulak--Eastern Ponds; (IBA KZ097)","obsDt":"2025-03-29 08:30","howMany":1,"lat":43.6419901,"lng":76.749106,"obsValid":true,"obsReviewed":false,"locationPrivate":false,"subId":"S221696777"},{"speciesCode":"finwhe1","comName":"Finsch's Wheatear","sciName":"Oenanthe finschii","locId":"L22000094","locName":"Zhygylgan Zhagalau","obsDt":"2025-03-28 16:46","howMany":2,"lat":44.6334246,"lng":50.815883,"obsValid":true,"obsReviewed":false,"locationPrivate":true,"subId":"S221463995"},{"speciesCode":"chukar","comName":"Chukar","sciName":"Alectoris chukar","locId":"L22000094","locName":"Zhygylgan Zhagalau","obsDt":"2025-03-28 16:46","howMany":16,"lat":44.6334246,"lng":50.815883,"obsValid":true,"obsReviewed":false,"locationPrivate":true,"subId":"S221463995"},{"speciesCode":"eurnut3","comName":"Northern Nutcracker","sciName":"Nucifraga caryocatactes","locId":"L41563519","locName":"Oi-Qaragai Mountain Resort","obsDt":"2025-03-27 07:31","howMany":3,"lat":43.224896,"lng":77.148918,"obsValid":true,"obsReviewed":false,"locationPrivate":true,"subId":"S221038530"},{"speciesCode":"whtdip1","comName":"White-throated Dipper","sciName":"Cinclus cinclus","locId":"L41563519","locName":"Oi-Qaragai Mountain Resort","obsDt":"2025-03-27 07:31","howMany":2,"lat":43.224896,"lng":77.148918,"obsValid":true,"obsReviewed":false,"locationPrivate":true,"subId":"S221038530"},{"speciesCode":"goldcr1","comName":"Goldcrest","sciName":"Regulus regulus","locId":"L41563519","locName":"Oi-Qaragai Mountain Resort","obsDt":"2025-03-27 07:31","howMany":4,"lat":43.224896,"lng":77.148918,"obsValid":true,"obsReviewed":false,"locationPrivate":true,"subId":"S221038530"},{"speciesCode":"winwre4","comName":"Eurasian Wren","sciName":"Troglodytes troglodytes","locId":"L41563519","locName":"Oi-Qaragai Mountain Resort","obsDt":"2025-03-27 07:31","howMany":4,"lat":43.224896,"lng":77.148918,"obsValid":true,"obsReviewed":false,"locationPrivate":true,"subId":"S221038530"},{"speciesCode":"jacsni","comName":"Jack Snipe","sciName":"Lymnocryptes minimus","locId":"L20473465","locName":"Ақтау--Самал (Aktau--Samal)","obsDt":"2025-03-26 12:36","howMany":2,"lat":43.6724348,"lng":51.1250868,"obsValid":true,"obsReviewed":false,"locationPrivate":false,"subId":"S220840648"},{"speciesCode":"remros1","comName":"Red-mantled Rosefinch","sciName":"Carpodacus rhodochlamys","locId":"L41721405","locName":"Shymbulak ski resort","obsDt":"2025-03-26 11:05","howMany":2,"lat":43.128059,"lng":77.080903,"obsValid":true,"obsReviewed":false,"locationPrivate":true,"subId":"S221038909"},{"speciesCode":"rebcho1","comName":"Red-billed Chough","sciName":"Pyrrhocorax pyrrhocorax","locId":"L41721405","locName":"Shymbulak ski resort","obsDt":"2025-03-26 11:05","howMany":1,"lat":43.128059,"lng":77.080903,"obsValid":true,"obsReviewed":false,"locationPrivate":true,"subId":"S221038909"},{"speciesCode":"grypar","comName":"Gray Partridge","sciName":"Perdix perdix","locId":"L36838255","locName":"Korolev","obsDt":"2025-03-26 07:38","howMany":4,"lat":46.252809,"lng":53.575022,"obsValid":true,"obsReviewed":false,"locationPrivate":true,"subId":"S220881085"},{"speciesCode":"alpswi1","comName":"Alpine Swift","sciName":"Tachymarptis melba","locId":"L21885788","locName":"Shymkent--Borzhar Reservoir","obsDt":"2025-03-25 10:13","howMany":1,"lat":42.4061219,"lng":69.4977248,"obsValid":true,"obsReviewed":false,"locationPrivate":false,"subId":"S220679387"},{"speciesCode":"comswi","comName":"Common Swift","sciName":"Apus apus","locId":"L21885788","locName":"Shymkent--Borzhar Reservoir","obsDt":"2025-03-25 10:13","lat":42.4061219,"lng":69.4977248,"obsValid":true,"obsReviewed":false,"locationPrivate":false,"subId":"S220679387"},{"speciesCode":"horlar","comName":"Horned Lark","sciName":"Eremophila alpestris","locId":"L35416747","locName":"WTF 3","obsDt":"2025-03-25 08:46","howMany":1,"lat":46.270021,"lng":53.40357,"obsValid":true,"obsReviewed":false,"locationPrivate":true,"subId":"S220612379"},{"speciesCode":"leskes1","comName":"Lesser Kestrel","sciName":"Falco naumanni","locId":"L41658091","locName":"село Рощинское, Тайыншинский район, СКО","obsDt":"2025-03-24 08:00","howMany":2,"lat":54.060492,"lng":69.14811,"obsValid":true,"obsReviewed":false,"locationPrivate":true,"subId":"S220708291"},{"speciesCode":"combuz6","comName":"Eastern Buzzard","sciName":"Buteo japonicus","locId":"L41563519","locName":"Oi-Qaragai Mountain Resort","obsDt":"2025-03-24 07:37","howMany":1,"lat":43.224896,"lng":77.148918,"obsValid":true,"obsReviewed":false,"locationPrivate":true,"subId":"S220406600"},{"speciesCode":"perfal","comName":"Peregrine Falcon","sciName":"Falco peregrinus","locId":"L41566133","locName":"Tulpar, Shymkent, KZ (42.378, 69.606)","obsDt":"2025-03-23 17:37","howMany":1,"lat":42.3780483,"lng":69.6057265,"obsValid":true,"obsReviewed":false,"locationPrivate":true,"subId":"S220251042"}]},"__N_SSG":true}